{
  "status": 1,
  "data": [
    {
      "From ID": "3",
      "From name": "AJOY NATH YADAV",
      "from district": "Alipurduar",
      "from lat": "22.573481",
      "from long": "88.230922",
      "commodity": "Atta",
      "quantity": "5",
      "From": "Wholesale"
    },
    {
      "From ID": "3",
      "From name": "AJOY NATH YADAV",
      "from district": "Alipurduar",
      "from lat": "22.573481",
      "from long": "88.230922",
      "commodity": "Atta",
      "quantity": "5",
      "From": "Wholesale"
    },
    {
      "From ID": "3",
      "From name": "AJOY NATH YADAV",
      "from district": "Alipurduar",
      "from lat": "22.573481",
      "from long": "88.230922",
      "commodity": "Atta",
      "quantity": "5",
      "From": "Wholesale"
    },
    {
      "From ID": "3",
      "From name": "AJOY NATH YADAV",
      "from district": "Alipurduar",
      "from lat": "22.573481",
      "from long": "88.230922",
      "commodity": "Atta",
      "quantity": "5",
      "From": "Wholesale"
    },
    {
      "From ID": "3",
      "From name": "AJOY NATH YADAV",
      "from district": "Alipurduar",
      "from lat": "22.573481",
      "from long": "88.230922",
      "commodity": "RR",
      "quantity": "7",
      "From": "Wholesale"
    },
    {
      "From ID": "3",
      "From name": "AJOY NATH YADAV",
      "from district": "Alipurduar",
      "from lat": "22.573481",
      "from long": "88.230922",
      "commodity": "RR",
      "quantity": "6",
      "From": "Wholesale"
    },
    {
      "From ID": "3",
      "From name": "AJOY NATH YADAV",
      "from district": "Alipurduar",
      "from lat": "22.573481",
      "from long": "88.230922",
      "commodity": "RR",
      "quantity": "6",
      "From": "Wholesale"
    },
    {
      "From ID": "3",
      "From name": "AJOY NATH YADAV",
      "from district": "Alipurduar",
      "from lat": "22.573481",
      "from long": "88.230922",
      "commodity": "RR",
      "quantity": "6",
      "From": "Wholesale"
    },
    {
      "From ID": "3",
      "From name": "AJOY NATH YADAV",
      "from district": "Alipurduar",
      "from lat": "22.573481",
      "from long": "88.230922",
      "commodity": "PR",
      "quantity": "24",
      "From": "Wholesale"
    },
    {
      "From ID": "3",
      "From name": "AJOY NATH YADAV",
      "from district": "Alipurduar",
      "from lat": "22.573481",
      "from long": "88.230922",
      "commodity": "PR",
      "quantity": "24",
      "From": "Wholesale"
    },
    {
      "From ID": "3",
      "From name": "AJOY NATH YADAV",
      "from district": "Alipurduar",
      "from lat": "22.573481",
      "from long": "88.230922",
      "commodity": "PR",
      "quantity": "24",
      "From": "Wholesale"
    },
    {
      "From ID": "3",
      "From name": "AJOY NATH YADAV",
      "from district": "Alipurduar",
      "from lat": "22.573481",
      "from long": "88.230922",
      "commodity": "PR",
      "quantity": "24",
      "From": "Wholesale"
    },
    {
      "From ID": "3",
      "From name": "AJOY NATH YADAV",
      "from district": "Alipurduar",
      "from lat": "22.573481",
      "from long": "88.230922",
      "commodity": "Wheat",
      "quantity": "4",
      "From": "Wholesale"
    },
    {
      "From ID": "3",
      "From name": "AJOY NATH YADAV",
      "from district": "Alipurduar",
      "from lat": "22.573481",
      "from long": "88.230922",
      "commodity": "Wheat",
      "quantity": "4",
      "From": "Wholesale"
    },
    {
      "From ID": "3",
      "From name": "AJOY NATH YADAV",
      "from district": "Alipurduar",
      "from lat": "22.573481",
      "from long": "88.230922",
      "commodity": "Wheat",
      "quantity": "4",
      "From": "Wholesale"
    },
    {
      "From ID": "3",
      "From name": "AJOY NATH YADAV",
      "from district": "Alipurduar",
      "from lat": "22.573481",
      "from long": "88.230922",
      "commodity": "Wheat",
      "quantity": "4",
      "From": "Wholesale"
    }
  ],
  "fci_data": [
    {
      "State Name": "",
      "WH_District": "Cooch Behar",
      "WH_Name": "Xyz",
      "WH_ID": "EF19001",
      "WH_Type": "FCI",
      "WH_Lat": "26.323061",
      "WH_Long": "89.473179",
      "Storage_Capacity": "59800",
      "Owned/Rented": "",
      "quantity of Wheat stored (Quintals)": ""
    },
    {
      "State Name": "",
      "WH_District": "Cooch Behar",
      "WH_Name": "Xyz",
      "WH_ID": "EF19002",
      "WH_Type": "FCI",
      "WH_Lat": "26.342637",
      "WH_Long": "89.465932",
      "Storage_Capacity": "100000",
      "Owned/Rented": "",
      "quantity of Wheat stored (Quintals)": ""
    },
    {
      "State Name": "",
      "WH_District": "Jalpaiguri",
      "WH_Name": "Xyz",
      "WH_ID": "CSDJ",
      "WH_Type": "FCI",
      "WH_Lat": "26.692415",
      "WH_Long": "88.446801",
      "Storage_Capacity": "685100",
      "Owned/Rented": "",
      "quantity of Wheat stored (Quintals)": ""
    },
    {
      "State Name": "",
      "WH_District": "Uttar Dinajpur",
      "WH_Name": "Xyz",
      "WH_ID": "EF29002",
      "WH_Type": "FCI",
      "WH_Lat": "25.62273",
      "WH_Long": "88.136449",
      "Storage_Capacity": "94000",
      "Owned/Rented": "",
      "quantity of Wheat stored (Quintals)": ""
    },
    {
      "State Name": "",
      "WH_District": "Dakshin Dinajpur",
      "WH_Name": "Xyz",
      "WH_ID": "EF29001",
      "WH_Type": "FCI",
      "WH_Lat": "25.384899",
      "WH_Long": "88.383691",
      "Storage_Capacity": "262700",
      "Owned/Rented": "",
      "quantity of Wheat stored (Quintals)": ""
    },
    {
      "State Name": "",
      "WH_District": "Malda",
      "WH_Name": "Xyz",
      "WH_ID": "EF23001",
      "WH_Type": "FCI",
      "WH_Lat": "25.019055",
      "WH_Long": "88.154338",
      "Storage_Capacity": "294000",
      "Owned/Rented": "",
      "quantity of Wheat stored (Quintals)": ""
    },
    {
      "State Name": "",
      "WH_District": "Malda",
      "WH_Name": "Xyz",
      "WH_ID": "EF23002",
      "WH_Type": "FCI",
      "WH_Lat": "25.063121",
      "WH_Long": "88.148682",
      "Storage_Capacity": "62640",
      "Owned/Rented": "",
      "quantity of Wheat stored (Quintals)": ""
    },
    {
      "State Name": "",
      "WH_District": "Murshidabad",
      "WH_Name": "Xyz",
      "WH_ID": "CSZ",
      "WH_Type": "FCI",
      "WH_Lat": "24.091296",
      "WH_Long": "88.261249",
      "Storage_Capacity": "132300",
      "Owned/Rented": "",
      "quantity of Wheat stored (Quintals)": ""
    },
    {
      "State Name": "",
      "WH_District": "Murshidabad",
      "WH_Name": "Xyz",
      "WH_ID": "SGV",
      "WH_Type": "FCI",
      "WH_Lat": "24.035246",
      "WH_Long": "88.248759",
      "Storage_Capacity": "67120",
      "Owned/Rented": "",
      "quantity of Wheat stored (Quintals)": ""
    },
    {
      "State Name": "",
      "WH_District": "Birbhum",
      "WH_Name": "Xyz",
      "WH_ID": "SURI",
      "WH_Type": "FCI",
      "WH_Lat": "23.894264",
      "WH_Long": "87.514061",
      "Storage_Capacity": "505300",
      "Owned/Rented": "",
      "quantity of Wheat stored (Quintals)": ""
    },
    {
      "State Name": "",
      "WH_District": "Purba Bardhaman",
      "WH_Name": "Xyz",
      "WH_ID": "EF14003",
      "WH_Type": "FCI",
      "WH_Lat": "23.474314",
      "WH_Long": "87.707259",
      "Storage_Capacity": "66000",
      "Owned/Rented": "",
      "quantity of Wheat stored (Quintals)": ""
    },
    {
      "State Name": "",
      "WH_District": "Purba Bardhaman",
      "WH_Name": "Xyz",
      "WH_ID": "EF14002",
      "WH_Type": "FCI",
      "WH_Lat": "23.323889",
      "WH_Long": "87.720369",
      "Storage_Capacity": "330480",
      "Owned/Rented": "",
      "quantity of Wheat stored (Quintals)": ""
    },
    {
      "State Name": "",
      "WH_District": "Paschim Bardhaman",
      "WH_Name": "Xyz",
      "WH_ID": "DFCI",
      "WH_Type": "FCI",
      "WH_Lat": "23.495287",
      "WH_Long": "87.326594",
      "Storage_Capacity": "286600",
      "Owned/Rented": "",
      "quantity of Wheat stored (Quintals)": ""
    },
    {
      "State Name": "",
      "WH_District": "Paschim Bardhaman",
      "WH_Name": "Xyz",
      "WH_ID": "ASN",
      "WH_Type": "FCI",
      "WH_Lat": "23.7184",
      "WH_Long": "86.881414",
      "Storage_Capacity": "88900",
      "Owned/Rented": "",
      "quantity of Wheat stored (Quintals)": ""
    },
    {
      "State Name": "",
      "WH_District": "Nadia",
      "WH_Name": "Xyz",
      "WH_ID": "FCK",
      "WH_Type": "FCI",
      "WH_Lat": "22.974507",
      "WH_Long": "88.46829",
      "Storage_Capacity": "1411400",
      "Owned/Rented": "",
      "quantity of Wheat stored (Quintals)": ""
    },
    {
      "State Name": "",
      "WH_District": "Nadia",
      "WH_Name": "Xyz",
      "WH_ID": "KNJ",
      "WH_Type": "FCI",
      "WH_Lat": "23.377164",
      "WH_Long": "88.486368",
      "Storage_Capacity": "222100",
      "Owned/Rented": "",
      "quantity of Wheat stored (Quintals)": ""
    },
    {
      "State Name": "",
      "WH_District": "North Twenty Four Parganas",
      "WH_Name": "Xyz",
      "WH_ID": "BT",
      "WH_Type": "FCI",
      "WH_Lat": "22.847335",
      "WH_Long": "88.62016",
      "Storage_Capacity": "50800",
      "Owned/Rented": "",
      "quantity of Wheat stored (Quintals)": ""
    },
    {
      "State Name": "",
      "WH_District": "Hooghly",
      "WH_Name": "Xyz",
      "WH_ID": "DFSD",
      "WH_Type": "FCI",
      "WH_Lat": "22.675184",
      "WH_Long": "88.298327",
      "Storage_Capacity": "250600",
      "Owned/Rented": "",
      "quantity of Wheat stored (Quintals)": ""
    },
    {
      "State Name": "",
      "WH_District": "Paschim Bardhaman",
      "WH_Name": "Xyz",
      "WH_ID": "SRP",
      "WH_Type": "FCI",
      "WH_Lat": "23.7184",
      "WH_Long": "86.881414",
      "Storage_Capacity": "81290",
      "Owned/Rented": "",
      "quantity of Wheat stored (Quintals)": ""
    },
    {
      "State Name": "",
      "WH_District": "Hooghly",
      "WH_Name": "Xyz",
      "WH_ID": "BDC",
      "WH_Type": "FCI",
      "WH_Lat": "22.894317",
      "WH_Long": "88.382035",
      "Storage_Capacity": "62600",
      "Owned/Rented": "",
      "quantity of Wheat stored (Quintals)": ""
    },
    {
      "State Name": "",
      "WH_District": "Kolkata",
      "WH_Name": "Xyz",
      "WH_ID": "611",
      "WH_Type": "FCI",
      "WH_Lat": "22.521734",
      "WH_Long": "88.302236",
      "Storage_Capacity": "1307700",
      "Owned/Rented": "",
      "quantity of Wheat stored (Quintals)": ""
    },
    {
      "State Name": "",
      "WH_District": "South Twenty Four Parganas",
      "WH_Name": "Xyz",
      "WH_ID": "EF28023",
      "WH_Type": "FCI",
      "WH_Lat": "22.472124",
      "WH_Long": "88.157958",
      "Storage_Capacity": "842800",
      "Owned/Rented": "",
      "quantity of Wheat stored (Quintals)": ""
    },
    {
      "State Name": "",
      "WH_District": "Paschim Medinipur",
      "WH_Name": "Xyz",
      "WH_ID": "KGP",
      "WH_Type": "FCI",
      "WH_Lat": "22.427409",
      "WH_Long": "87.299982",
      "Storage_Capacity": "427000",
      "Owned/Rented": "",
      "quantity of Wheat stored (Quintals)": ""
    },
    {
      "State Name": "",
      "WH_District": "Purulia",
      "WH_Name": "Xyz",
      "WH_ID": "FCIP",
      "WH_Type": "FCI",
      "WH_Lat": "23.500435",
      "WH_Long": "86.708177",
      "Storage_Capacity": "375800",
      "Owned/Rented": "",
      "quantity of Wheat stored (Quintals)": ""
    },
    {
      "State Name": "",
      "WH_District": "Purulia",
      "WH_Name": "Xyz",
      "WH_ID": "EF27001",
      "WH_Type": "FCI",
      "WH_Lat": "23.090316",
      "WH_Long": "86.206585",
      "Storage_Capacity": "94600",
      "Owned/Rented": "",
      "quantity of Wheat stored (Quintals)": ""
    },
    {
      "State Name": "",
      "WH_District": "Purulia",
      "WH_Name": "Xyz",
      "WH_ID": "EF27002",
      "WH_Type": "FCI",
      "WH_Lat": "23.371725",
      "WH_Long": "86.415222",
      "Storage_Capacity": "213500",
      "Owned/Rented": "",
      "quantity of Wheat stored (Quintals)": ""
    },
    {
      "State Name": "",
      "WH_District": "Bankura",
      "WH_Name": "Xyz",
      "WH_ID": "BQA",
      "WH_Type": "FCI",
      "WH_Lat": "23.253388",
      "WH_Long": "87.086904",
      "Storage_Capacity": "289100",
      "Owned/Rented": "",
      "quantity of Wheat stored (Quintals)": ""
    }
  ]
}